{
  "_comment": "Seed reference data for the districts table. Centroids are real, approximate well-known coordinates for these Moscow districts/hubs. Polygons are NOT survey-grade administrative boundaries — they are small placeholder squares (~1.5km) around each centroid, good enough for MVP point-in-polygon geocoding and map rendering. Replace with real GeoJSON boundaries (e.g. from OSM) when available. Covers all 125 official districts (12 okrugs incl. Zelenograd; New Moscow settlements out of scope) plus non-district demand hubs: the three rail-station areas (Белорусская, Павелецкая, Курская) and the airport zones (Шереметьевская, Домодедово; Внуково is both a real ЗАО district and the airport).",
  "districts": [
    {"name": "Тверской", "name_en": "Tverskoy", "okrug": "ЦАО", "centroid_lat": 55.7699, "centroid_lng": 37.6063, "airport_nearby": false, "metro_stations_count": 3},
    {"name": "Арбат", "name_en": "Arbat", "okrug": "ЦАО", "centroid_lat": 55.7522, "centroid_lng": 37.5920, "airport_nearby": false, "metro_stations_count": 2},
    {"name": "Замоскворечье", "name_en": "Zamoskvorechye", "okrug": "ЦАО", "centroid_lat": 55.7382, "centroid_lng": 37.6306, "airport_nearby": false, "metro_stations_count": 3},
    {"name": "Пресненский", "name_en": "Presnensky", "okrug": "ЦАО", "centroid_lat": 55.7602, "centroid_lng": 37.5730, "airport_nearby": false, "metro_stations_count": 3},
    {"name": "Хамовники", "name_en": "Khamovniki", "okrug": "ЦАО", "centroid_lat": 55.7280, "centroid_lng": 37.5720, "airport_nearby": false, "metro_stations_count": 2},
    {"name": "Басманный", "name_en": "Basmanny", "okrug": "ЦАО", "centroid_lat": 55.7670, "centroid_lng": 37.6690, "airport_nearby": false, "metro_stations_count": 3},
    {"name": "Красносельский", "name_en": "Krasnoselsky", "okrug": "ЦАО", "centroid_lat": 55.7790, "centroid_lng": 37.6660, "airport_nearby": false, "metro_stations_count": 2},
    {"name": "Мещанский", "name_en": "Meshchansky", "okrug": "ЦАО", "centroid_lat": 55.7780, "centroid_lng": 37.6260, "airport_nearby": false, "metro_stations_count": 3},
    {"name": "Таганский", "name_en": "Tagansky", "okrug": "ЦАО", "centroid_lat": 55.7420, "centroid_lng": 37.6660, "airport_nearby": false, "metro_stations_count": 3},
    {"name": "Якиманка", "name_en": "Yakimanka", "okrug": "ЦАО", "centroid_lat": 55.7340, "centroid_lng": 37.6120, "airport_nearby": false, "metro_stations_count": 2},
    {"name": "Белорусская", "name_en": "Belorusskaya", "okrug": "САО", "centroid_lat": 55.7765, "centroid_lng": 37.5838, "airport_nearby": false, "metro_stations_count": 1},
    {"name": "Павелецкая", "name_en": "Paveletskaya", "okrug": "ЦАО", "centroid_lat": 55.7300, "centroid_lng": 37.6393, "airport_nearby": false, "metro_stations_count": 1},
    {"name": "Курская", "name_en": "Kurskaya", "okrug": "ЦАО", "centroid_lat": 55.7580, "centroid_lng": 37.6597, "airport_nearby": false, "metro_stations_count": 1},
    {"name": "Аэропорт", "name_en": "Aeroport", "okrug": "САО", "centroid_lat": 55.8000, "centroid_lng": 37.5330, "airport_nearby": false, "metro_stations_count": 1},
    {"name": "Беговой", "name_en": "Begovoy", "okrug": "САО", "centroid_lat": 55.7810, "centroid_lng": 37.5630, "airport_nearby": false, "metro_stations_count": 2},
    {"name": "Бескудниковский", "name_en": "Beskudnikovsky", "okrug": "САО", "centroid_lat": 55.8650, "centroid_lng": 37.5450, "airport_nearby": false, "metro_stations_count": 1},
    {"name": "Войковский", "name_en": "Voykovsky", "okrug": "САО", "centroid_lat": 55.8190, "centroid_lng": 37.4980, "airport_nearby": false, "metro_stations_count": 1},
    {"name": "Восточное Дегунино", "name_en": "Vostochnoye Degunino", "okrug": "САО", "centroid_lat": 55.8770, "centroid_lng": 37.5680, "airport_nearby": false, "metro_stations_count": 1},
    {"name": "Головинский", "name_en": "Golovinsky", "okrug": "САО", "centroid_lat": 55.8400, "centroid_lng": 37.5070, "airport_nearby": false, "metro_stations_count": 1},
    {"name": "Дмитровский", "name_en": "Dmitrovsky", "okrug": "САО", "centroid_lat": 55.8880, "centroid_lng": 37.5430, "airport_nearby": false, "metro_stations_count": 1},
    {"name": "Западное Дегунино", "name_en": "Zapadnoye Degunino", "okrug": "САО", "centroid_lat": 55.8790, "centroid_lng": 37.5120, "airport_nearby": false, "metro_stations_count": 0},
    {"name": "Коптево", "name_en": "Koptevo", "okrug": "САО", "centroid_lat": 55.8390, "centroid_lng": 37.5240, "airport_nearby": false, "metro_stations_count": 1},
    {"name": "Левобережный", "name_en": "Levoberezhny", "okrug": "САО", "centroid_lat": 55.8770, "centroid_lng": 37.4770, "airport_nearby": false, "metro_stations_count": 1},
    {"name": "Молжаниновский", "name_en": "Molzhaninovsky", "okrug": "САО", "centroid_lat": 55.9250, "centroid_lng": 37.3780, "airport_nearby": true, "metro_stations_count": 0},
    {"name": "Савёловский", "name_en": "Savyolovsky", "okrug": "САО", "centroid_lat": 55.7940, "centroid_lng": 37.5870, "airport_nearby": false, "metro_stations_count": 2},
    {"name": "Сокол", "name_en": "Sokol", "okrug": "САО", "centroid_lat": 55.8040, "centroid_lng": 37.5150, "airport_nearby": false, "metro_stations_count": 1},
    {"name": "Тимирязевский", "name_en": "Timiryazevsky", "okrug": "САО", "centroid_lat": 55.8190, "centroid_lng": 37.5610, "airport_nearby": false, "metro_stations_count": 2},
    {"name": "Ховрино", "name_en": "Khovrino", "okrug": "САО", "centroid_lat": 55.8664, "centroid_lng": 37.4794, "airport_nearby": false, "metro_stations_count": 1},
    {"name": "Хорошёвский", "name_en": "Khoroshyovsky", "okrug": "САО", "centroid_lat": 55.7770, "centroid_lng": 37.5260, "airport_nearby": false, "metro_stations_count": 2},
    {"name": "Алексеевский", "name_en": "Alekseevsky", "okrug": "СВАО", "centroid_lat": 55.8140, "centroid_lng": 37.6490, "airport_nearby": false, "metro_stations_count": 2},
    {"name": "Алтуфьевский", "name_en": "Altufyevsky", "okrug": "СВАО", "centroid_lat": 55.8810, "centroid_lng": 37.5860, "airport_nearby": false, "metro_stations_count": 1},
    {"name": "Бабушкинский", "name_en": "Babushkinsky", "okrug": "СВАО", "centroid_lat": 55.8690, "centroid_lng": 37.6640, "airport_nearby": false, "metro_stations_count": 1},
    {"name": "Бибирево", "name_en": "Bibirevo", "okrug": "СВАО", "centroid_lat": 55.8940, "centroid_lng": 37.6030, "airport_nearby": false, "metro_stations_count": 1},
    {"name": "Бутырский", "name_en": "Butyrsky", "okrug": "СВАО", "centroid_lat": 55.8130, "centroid_lng": 37.5880, "airport_nearby": false, "metro_stations_count": 1},
    {"name": "Лианозово", "name_en": "Lianozovo", "okrug": "СВАО", "centroid_lat": 55.8980, "centroid_lng": 37.5560, "airport_nearby": false, "metro_stations_count": 1},
    {"name": "Лосиноостровский", "name_en": "Losinoostrovsky", "okrug": "СВАО", "centroid_lat": 55.8770, "centroid_lng": 37.6870, "airport_nearby": false, "metro_stations_count": 0},
    {"name": "Марфино", "name_en": "Marfino", "okrug": "СВАО", "centroid_lat": 55.8300, "centroid_lng": 37.5950, "airport_nearby": false, "metro_stations_count": 0},
    {"name": "Марьина Роща", "name_en": "Maryina Roshcha", "okrug": "СВАО", "centroid_lat": 55.7940, "centroid_lng": 37.6160, "airport_nearby": false, "metro_stations_count": 1},
    {"name": "Останкинский", "name_en": "Ostankinsky", "okrug": "СВАО", "centroid_lat": 55.8200, "centroid_lng": 37.6120, "airport_nearby": false, "metro_stations_count": 1},
    {"name": "Отрадное", "name_en": "Otradnoye", "okrug": "СВАО", "centroid_lat": 55.8630, "centroid_lng": 37.6040, "airport_nearby": false, "metro_stations_count": 1},
    {"name": "Ростокино", "name_en": "Rostokino", "okrug": "СВАО", "centroid_lat": 55.8330, "centroid_lng": 37.6620, "airport_nearby": false, "metro_stations_count": 1},
    {"name": "Свиблово", "name_en": "Sviblovo", "okrug": "СВАО", "centroid_lat": 55.8550, "centroid_lng": 37.6520, "airport_nearby": false, "metro_stations_count": 2},
    {"name": "Северный", "name_en": "Severny", "okrug": "СВАО", "centroid_lat": 55.9270, "centroid_lng": 37.5470, "airport_nearby": false, "metro_stations_count": 1},
    {"name": "Северное Медведково", "name_en": "Severnoye Medvedkovo", "okrug": "СВАО", "centroid_lat": 55.8870, "centroid_lng": 37.6570, "airport_nearby": false, "metro_stations_count": 1},
    {"name": "Южное Медведково", "name_en": "Yuzhnoye Medvedkovo", "okrug": "СВАО", "centroid_lat": 55.8730, "centroid_lng": 37.6440, "airport_nearby": false, "metro_stations_count": 0},
    {"name": "Ярославский", "name_en": "Yaroslavsky", "okrug": "СВАО", "centroid_lat": 55.8560, "centroid_lng": 37.7050, "airport_nearby": false, "metro_stations_count": 0},
    {"name": "Богородское", "name_en": "Bogorodskoye", "okrug": "ВАО", "centroid_lat": 55.8150, "centroid_lng": 37.7020, "airport_nearby": false, "metro_stations_count": 1},
    {"name": "Вешняки", "name_en": "Veshnyaki", "okrug": "ВАО", "centroid_lat": 55.7240, "centroid_lng": 37.8190, "airport_nearby": false, "metro_stations_count": 1},
    {"name": "Восточный", "name_en": "Vostochny", "okrug": "ВАО", "centroid_lat": 55.8180, "centroid_lng": 37.8620, "airport_nearby": false, "metro_stations_count": 0},
    {"name": "Гольяново", "name_en": "Golyanovo", "okrug": "ВАО", "centroid_lat": 55.8220, "centroid_lng": 37.8000, "airport_nearby": false, "metro_stations_count": 1},
    {"name": "Ивановское", "name_en": "Ivanovskoye", "okrug": "ВАО", "centroid_lat": 55.7720, "centroid_lng": 37.8210, "airport_nearby": false, "metro_stations_count": 0},
    {"name": "Измайлово", "name_en": "Izmaylovo", "okrug": "ВАО", "centroid_lat": 55.7880, "centroid_lng": 37.7620, "airport_nearby": false, "metro_stations_count": 2},
    {"name": "Восточное Измайлово", "name_en": "Vostochnoye Izmaylovo", "okrug": "ВАО", "centroid_lat": 55.7960, "centroid_lng": 37.8180, "airport_nearby": false, "metro_stations_count": 1},
    {"name": "Северное Измайлово", "name_en": "Severnoye Izmaylovo", "okrug": "ВАО", "centroid_lat": 55.8090, "centroid_lng": 37.7970, "airport_nearby": false, "metro_stations_count": 0},
    {"name": "Косино-Ухтомский", "name_en": "Kosino-Ukhtomsky", "okrug": "ВАО", "centroid_lat": 55.7180, "centroid_lng": 37.8590, "airport_nearby": false, "metro_stations_count": 2},
    {"name": "Метрогородок", "name_en": "Metrogorodok", "okrug": "ВАО", "centroid_lat": 55.8300, "centroid_lng": 37.7530, "airport_nearby": false, "metro_stations_count": 0},
    {"name": "Новогиреево", "name_en": "Novogireevo", "okrug": "ВАО", "centroid_lat": 55.7520, "centroid_lng": 37.8170, "airport_nearby": false, "metro_stations_count": 1},
    {"name": "Новокосино", "name_en": "Novokosino", "okrug": "ВАО", "centroid_lat": 55.7380, "centroid_lng": 37.8640, "airport_nearby": false, "metro_stations_count": 1},
    {"name": "Перово", "name_en": "Perovo", "okrug": "ВАО", "centroid_lat": 55.7510, "centroid_lng": 37.7870, "airport_nearby": false, "metro_stations_count": 2},
    {"name": "Преображенское", "name_en": "Preobrazhenskoye", "okrug": "ВАО", "centroid_lat": 55.7960, "centroid_lng": 37.7150, "airport_nearby": false, "metro_stations_count": 2},
    {"name": "Соколиная Гора", "name_en": "Sokolinaya Gora", "okrug": "ВАО", "centroid_lat": 55.7690, "centroid_lng": 37.7440, "airport_nearby": false, "metro_stations_count": 1},
    {"name": "Сокольники", "name_en": "Sokolniki", "okrug": "ВАО", "centroid_lat": 55.7887, "centroid_lng": 37.6792, "airport_nearby": false, "metro_stations_count": 1},
    {"name": "Выхино-Жулебино", "name_en": "Vykhino-Zhulebino", "okrug": "ЮВАО", "centroid_lat": 55.7010, "centroid_lng": 37.8350, "airport_nearby": false, "metro_stations_count": 3},
    {"name": "Капотня", "name_en": "Kapotnya", "okrug": "ЮВАО", "centroid_lat": 55.6390, "centroid_lng": 37.8000, "airport_nearby": false, "metro_stations_count": 0},
    {"name": "Кузьминки", "name_en": "Kuzminki", "okrug": "ЮВАО", "centroid_lat": 55.7000, "centroid_lng": 37.7650, "airport_nearby": false, "metro_stations_count": 1},
    {"name": "Лефортово", "name_en": "Lefortovo", "okrug": "ЮВАО", "centroid_lat": 55.7560, "centroid_lng": 37.7080, "airport_nearby": false, "metro_stations_count": 2},
    {"name": "Люблино", "name_en": "Lyublino", "okrug": "ЮВАО", "centroid_lat": 55.6772, "centroid_lng": 37.7602, "airport_nearby": false, "metro_stations_count": 1},
    {"name": "Марьино", "name_en": "Maryino", "okrug": "ЮВАО", "centroid_lat": 55.6580, "centroid_lng": 37.7458, "airport_nearby": false, "metro_stations_count": 1},
    {"name": "Некрасовка", "name_en": "Nekrasovka", "okrug": "ЮВАО", "centroid_lat": 55.6830, "centroid_lng": 37.9260, "airport_nearby": false, "metro_stations_count": 1},
    {"name": "Нижегородский", "name_en": "Nizhegorodsky", "okrug": "ЮВАО", "centroid_lat": 55.7320, "centroid_lng": 37.7280, "airport_nearby": false, "metro_stations_count": 2},
    {"name": "Печатники", "name_en": "Pechatniki", "okrug": "ЮВАО", "centroid_lat": 55.6802, "centroid_lng": 37.7267, "airport_nearby": false, "metro_stations_count": 1},
    {"name": "Рязанский", "name_en": "Ryazansky", "okrug": "ЮВАО", "centroid_lat": 55.7170, "centroid_lng": 37.7660, "airport_nearby": false, "metro_stations_count": 2},
    {"name": "Текстильщики", "name_en": "Tekstilshchiki", "okrug": "ЮВАО", "centroid_lat": 55.7090, "centroid_lng": 37.7310, "airport_nearby": false, "metro_stations_count": 1},
    {"name": "Южнопортовый", "name_en": "Yuzhnoportovy", "okrug": "ЮВАО", "centroid_lat": 55.7180, "centroid_lng": 37.6800, "airport_nearby": false, "metro_stations_count": 2},
    {"name": "Бирюлёво Восточное", "name_en": "Biryulyovo Vostochnoye", "okrug": "ЮАО", "centroid_lat": 55.5930, "centroid_lng": 37.6730, "airport_nearby": false, "metro_stations_count": 0},
    {"name": "Бирюлёво Западное", "name_en": "Biryulyovo Zapadnoye", "okrug": "ЮАО", "centroid_lat": 55.5860, "centroid_lng": 37.6410, "airport_nearby": false, "metro_stations_count": 0},
    {"name": "Братеево", "name_en": "Brateevo", "okrug": "ЮАО", "centroid_lat": 55.6360, "centroid_lng": 37.7640, "airport_nearby": false, "metro_stations_count": 1},
    {"name": "Даниловский", "name_en": "Danilovsky", "okrug": "ЮАО", "centroid_lat": 55.7110, "centroid_lng": 37.6290, "airport_nearby": false, "metro_stations_count": 3},
    {"name": "Донской", "name_en": "Donskoy", "okrug": "ЮАО", "centroid_lat": 55.7160, "centroid_lng": 37.6060, "airport_nearby": false, "metro_stations_count": 2},
    {"name": "Зябликово", "name_en": "Zyablikovo", "okrug": "ЮАО", "centroid_lat": 55.6230, "centroid_lng": 37.7460, "airport_nearby": false, "metro_stations_count": 2},
    {"name": "Москворечье-Сабурово", "name_en": "Moskvorechye-Saburovo", "okrug": "ЮАО", "centroid_lat": 55.6410, "centroid_lng": 37.6640, "airport_nearby": false, "metro_stations_count": 1},
    {"name": "Нагатино-Садовники", "name_en": "Nagatino-Sadovniki", "okrug": "ЮАО", "centroid_lat": 55.6800, "centroid_lng": 37.6410, "airport_nearby": false, "metro_stations_count": 2},
    {"name": "Нагатинский Затон", "name_en": "Nagatinsky Zaton", "okrug": "ЮАО", "centroid_lat": 55.6820, "centroid_lng": 37.6740, "airport_nearby": false, "metro_stations_count": 1},
    {"name": "Нагорный", "name_en": "Nagorny", "okrug": "ЮАО", "centroid_lat": 55.6660, "centroid_lng": 37.6110, "airport_nearby": false, "metro_stations_count": 2},
    {"name": "Орехово-Борисово Северное", "name_en": "Orekhovo-Borisovo Severnoye", "okrug": "ЮАО", "centroid_lat": 55.6140, "centroid_lng": 37.7220, "airport_nearby": false, "metro_stations_count": 1},
    {"name": "Орехово-Борисово Южное", "name_en": "Orekhovo-Borisovo Yuzhnoye", "okrug": "ЮАО", "centroid_lat": 55.6030, "centroid_lng": 37.7330, "airport_nearby": false, "metro_stations_count": 1},
    {"name": "Царицыно", "name_en": "Tsaritsyno", "okrug": "ЮАО", "centroid_lat": 55.6167, "centroid_lng": 37.6667, "airport_nearby": false, "metro_stations_count": 1},
    {"name": "Чертаново Северное", "name_en": "Chertanovo Severnoye", "okrug": "ЮАО", "centroid_lat": 55.6360, "centroid_lng": 37.6060, "airport_nearby": false, "metro_stations_count": 2},
    {"name": "Чертаново Центральное", "name_en": "Chertanovo Tsentralnoye", "okrug": "ЮАО", "centroid_lat": 55.6220, "centroid_lng": 37.6060, "airport_nearby": false, "metro_stations_count": 1},
    {"name": "Чертаново Южное", "name_en": "Chertanovo Yuzhnoye", "okrug": "ЮАО", "centroid_lat": 55.5900, "centroid_lng": 37.6000, "airport_nearby": false, "metro_stations_count": 2},
    {"name": "Академический", "name_en": "Akademichesky", "okrug": "ЮЗАО", "centroid_lat": 55.6870, "centroid_lng": 37.5730, "airport_nearby": false, "metro_stations_count": 2},
    {"name": "Гагаринский", "name_en": "Gagarinsky", "okrug": "ЮЗАО", "centroid_lat": 55.6980, "centroid_lng": 37.5540, "airport_nearby": false, "metro_stations_count": 2},
    {"name": "Зюзино", "name_en": "Zyuzino", "okrug": "ЮЗАО", "centroid_lat": 55.6560, "centroid_lng": 37.5680, "airport_nearby": false, "metro_stations_count": 3},
    {"name": "Коньково", "name_en": "Konkovo", "okrug": "ЮЗАО", "centroid_lat": 55.6330, "centroid_lng": 37.5190, "airport_nearby": false, "metro_stations_count": 2},
    {"name": "Котловка", "name_en": "Kotlovka", "okrug": "ЮЗАО", "centroid_lat": 55.6720, "centroid_lng": 37.6010, "airport_nearby": false, "metro_stations_count": 1},
    {"name": "Ломоносовский", "name_en": "Lomonosovsky", "okrug": "ЮЗАО", "centroid_lat": 55.6800, "centroid_lng": 37.5330, "airport_nearby": false, "metro_stations_count": 1},
    {"name": "Обручевский", "name_en": "Obruchevsky", "okrug": "ЮЗАО", "centroid_lat": 55.6500, "centroid_lng": 37.5250, "airport_nearby": false, "metro_stations_count": 2},
    {"name": "Северное Бутово", "name_en": "Severnoye Butovo", "okrug": "ЮЗАО", "centroid_lat": 55.5700, "centroid_lng": 37.5800, "airport_nearby": false, "metro_stations_count": 1},
    {"name": "Тёплый Стан", "name_en": "Tyoply Stan", "okrug": "ЮЗАО", "centroid_lat": 55.6190, "centroid_lng": 37.4930, "airport_nearby": false, "metro_stations_count": 1},
    {"name": "Черёмушки", "name_en": "Cheryomushki", "okrug": "ЮЗАО", "centroid_lat": 55.6700, "centroid_lng": 37.5620, "airport_nearby": false, "metro_stations_count": 1},
    {"name": "Южное Бутово", "name_en": "Yuzhnoye Butovo", "okrug": "ЮЗАО", "centroid_lat": 55.5410, "centroid_lng": 37.5300, "airport_nearby": false, "metro_stations_count": 3},
    {"name": "Ясенево", "name_en": "Yasenevo", "okrug": "ЮЗАО", "centroid_lat": 55.6060, "centroid_lng": 37.5340, "airport_nearby": false, "metro_stations_count": 3},
    {"name": "Внуково", "name_en": "Vnukovo", "okrug": "ЗАО", "centroid_lat": 55.5980, "centroid_lng": 37.2680, "airport_nearby": true, "metro_stations_count": 0},
    {"name": "Дорогомилово", "name_en": "Dorogomilovo", "okrug": "ЗАО", "centroid_lat": 55.7412, "centroid_lng": 37.5433, "airport_nearby": false, "metro_stations_count": 1},
    {"name": "Крылатское", "name_en": "Krylatskoye", "okrug": "ЗАО", "centroid_lat": 55.7570, "centroid_lng": 37.4080, "airport_nearby": false, "metro_stations_count": 1},
    {"name": "Кунцево", "name_en": "Kuntsevo", "okrug": "ЗАО", "centroid_lat": 55.7300, "centroid_lng": 37.4460, "airport_nearby": false, "metro_stations_count": 2},
    {"name": "Можайский", "name_en": "Mozhaysky", "okrug": "ЗАО", "centroid_lat": 55.7080, "centroid_lng": 37.4210, "airport_nearby": false, "metro_stations_count": 0},
    {"name": "Ново-Переделкино", "name_en": "Novo-Peredelkino", "okrug": "ЗАО", "centroid_lat": 55.6440, "centroid_lng": 37.3880, "airport_nearby": false, "metro_stations_count": 2},
    {"name": "Очаково-Матвеевское", "name_en": "Ochakovo-Matveevskoye", "okrug": "ЗАО", "centroid_lat": 55.6830, "centroid_lng": 37.4560, "airport_nearby": false, "metro_stations_count": 1},
    {"name": "Проспект Вернадского", "name_en": "Prospekt Vernadskogo", "okrug": "ЗАО", "centroid_lat": 55.6770, "centroid_lng": 37.5050, "airport_nearby": false, "metro_stations_count": 2},
    {"name": "Раменки", "name_en": "Ramenki", "okrug": "ЗАО", "centroid_lat": 55.7042, "centroid_lng": 37.5089, "airport_nearby": false, "metro_stations_count": 1},
    {"name": "Солнцево", "name_en": "Solntsevo", "okrug": "ЗАО", "centroid_lat": 55.6470, "centroid_lng": 37.4100, "airport_nearby": false, "metro_stations_count": 2},
    {"name": "Тропарёво-Никулино", "name_en": "Troparyovo-Nikulino", "okrug": "ЗАО", "centroid_lat": 55.6560, "centroid_lng": 37.4770, "airport_nearby": false, "metro_stations_count": 2},
    {"name": "Филёвский Парк", "name_en": "Filyovsky Park", "okrug": "ЗАО", "centroid_lat": 55.7440, "centroid_lng": 37.4870, "airport_nearby": false, "metro_stations_count": 3},
    {"name": "Фили-Давыдково", "name_en": "Fili-Davydkovo", "okrug": "ЗАО", "centroid_lat": 55.7230, "centroid_lng": 37.4720, "airport_nearby": false, "metro_stations_count": 1},
    {"name": "Куркино", "name_en": "Kurkino", "okrug": "СЗАО", "centroid_lat": 55.8930, "centroid_lng": 37.3890, "airport_nearby": false, "metro_stations_count": 0},
    {"name": "Митино", "name_en": "Mitino", "okrug": "СЗАО", "centroid_lat": 55.8339, "centroid_lng": 37.3439, "airport_nearby": false, "metro_stations_count": 1},
    {"name": "Покровское-Стрешнево", "name_en": "Pokrovskoye-Streshnevo", "okrug": "СЗАО", "centroid_lat": 55.8210, "centroid_lng": 37.4630, "airport_nearby": false, "metro_stations_count": 2},
    {"name": "Северное Тушино", "name_en": "Severnoye Tushino", "okrug": "СЗАО", "centroid_lat": 55.8590, "centroid_lng": 37.4240, "airport_nearby": false, "metro_stations_count": 1},
    {"name": "Южное Тушино", "name_en": "Yuzhnoye Tushino", "okrug": "СЗАО", "centroid_lat": 55.8480, "centroid_lng": 37.4380, "airport_nearby": false, "metro_stations_count": 1},
    {"name": "Строгино", "name_en": "Strogino", "okrug": "СЗАО", "centroid_lat": 55.8030, "centroid_lng": 37.4030, "airport_nearby": false, "metro_stations_count": 1},
    {"name": "Хорошёво-Мнёвники", "name_en": "Khoroshyovo-Mnyovniki", "okrug": "СЗАО", "centroid_lat": 55.7770, "centroid_lng": 37.4720, "airport_nearby": false, "metro_stations_count": 2},
    {"name": "Щукино", "name_en": "Shchukino", "okrug": "СЗАО", "centroid_lat": 55.8080, "centroid_lng": 37.4640, "airport_nearby": false, "metro_stations_count": 2},
    {"name": "Матушкино", "name_en": "Matushkino", "okrug": "ЗелАО", "centroid_lat": 55.9980, "centroid_lng": 37.2000, "airport_nearby": false, "metro_stations_count": 0},
    {"name": "Савёлки", "name_en": "Savyolki", "okrug": "ЗелАО", "centroid_lat": 55.9870, "centroid_lng": 37.2210, "airport_nearby": false, "metro_stations_count": 0},
    {"name": "Старое Крюково", "name_en": "Staroye Kryukovo", "okrug": "ЗелАО", "centroid_lat": 55.9770, "centroid_lng": 37.1970, "airport_nearby": false, "metro_stations_count": 0},
    {"name": "Силино", "name_en": "Silino", "okrug": "ЗелАО", "centroid_lat": 55.9870, "centroid_lng": 37.1810, "airport_nearby": false, "metro_stations_count": 0},
    {"name": "Крюково", "name_en": "Kryukovo", "okrug": "ЗелАО", "centroid_lat": 55.9610, "centroid_lng": 37.1750, "airport_nearby": false, "metro_stations_count": 0},
    {"name": "Шереметьевская", "name_en": "Sheremetyevskaya", "okrug": "САО", "centroid_lat": 55.9736, "centroid_lng": 37.4125, "airport_nearby": true, "metro_stations_count": 0},
    {"name": "Домодедово", "name_en": "Domodedovo", "okrug": "ЮАО", "centroid_lat": 55.4088, "centroid_lng": 37.9061, "airport_nearby": true, "metro_stations_count": 0}
  ]
}
